Dumping site,latitude,longitude,x,y,Closest node,Closest distance,Closest time
Genbrugsstation Lindved,55.34633357,10.41130861,589496.8561514776,6134238.961874159,215.0,127.99621266605396,9.214990112746865
Genbrugsstation Holkebjergvej,55.35862009,10.33380195,584555.9763011052,6135509.274893527,451.0,3303.729741361614,237.84951341696282
Genbrugsstation Bilka,55.37732812,10.42867451,590527.2488302579,6137710.285603947,1468.0,58.87710192085779,4.238812233323094
Genbrugsstation Snapindvej,55.39794741,10.35524762,585830.2317510466,6139911.670755133,1931.0,2802.2385112873517,201.74503321003252
Genbrugsstation Havnegade,55.42573963,10.39192678,588091.1646605338,6143050.092144969,1170.0,3133.500389947007,225.59398055773988
Genbrugsstation Seden,55.43102608,10.46100935,592450.5251706425,6143727.973636868,1314.0,2461.8249176518216,177.23721509372365
